<?xml version="1.0" encoding="UTF-8"?>
<kml xmlns="http://www.opengis.net/kml/2.2">
<Document>
<name>
Crown Dependencies
</name>
 <description>
display the Flag at the Coordinates of Islands
</description>
<Style id="alderney">
<IconStyle>
<Icon>
<href>
https://upload.wikimedia.org/wikipedia/commons/thumb/f/f3/Flag_of_Alderney.svg/23px-Flag_of_Alderney.svg.png
</href>
</Icon>
</IconStyle>
</Style>
<Style id="guernsey">
<IconStyle>
<Icon>
<href>
https://upload.wikimedia.org/wikipedia/commons/thumb/f/fa/Flag_of_Guernsey.svg/23px-Flag_of_Guernsey.svg.png
</href>
</Icon>
</IconStyle>
</Style>
<Style id="herm">
<IconStyle>
<Icon>
<href>
https://upload.wikimedia.org/wikipedia/commons/thumb/b/b8/Flag_of_Herm.svg/23px-Flag_of_Herm.svg.png
</href>
</Icon>
</IconStyle>
</Style>
<Style id="sark">
<IconStyle>
<Icon>
<href>
https://upload.wikimedia.org/wikipedia/commons/thumb/6/64/Flag_of_Sark.svg/23px-Flag_of_Sark.svg.png
</href>
</Icon>
</IconStyle>
</Style>
<Style id="jersey">
<IconStyle>
<Icon>
<href>
https://upload.wikimedia.org/wikipedia/commons/thumb/1/1c/Flag_of_Jersey.svg/23px-Flag_of_Jersey.svg.png
</href>
</Icon>
</IconStyle>
</Style>
<Style id="isle_of_man">
<IconStyle>
<Icon>
<href>
https://upload.wikimedia.org/wikipedia/commons/thumb/5/5d/Flag_of_the_Isle_of_Mann.svg/23px-Flag_of_the_Isle_of_Mann.svg.png
</href>
</Icon>
</IconStyle>
</Style>

<Placemark>
<name>Alderney</name>
<description>
<![CDATA[<a href="https://en.wikipedia.org/wiki/Alderney">Alderney</a>]]>
</description>
<styleUrl>#alderney</styleUrl>
<Point>
<coordinates>
-2.205833, 49.713333, 0
</coordinates>
</Point>
</Placemark><Placemark>
<name>Guernsey</name>
<description>
<![CDATA[<a href="https://en.wikipedia.org/wiki/Guernsey">Guernsey</a>]]>
</description>
<styleUrl>#guernsey</styleUrl>
<Point>
<coordinates>
-2.5368, 49.4555, 0
</coordinates>
</Point>
</Placemark><Placemark>
<name>Herm</name>
<description>
<![CDATA[<a href="https://en.wikipedia.org/wiki/Herm">Herm</a>]]>
</description>
<styleUrl>#herm</styleUrl>
<Point>
<coordinates>
-2.45, 49.466667, 0
</coordinates>
</Point>
</Placemark><Placemark>
<name>Sark</name>
<description>
<![CDATA[<a href="https://en.wikipedia.org/wiki/Sark">Sark</a>]]>
</description>
<styleUrl>#sark</styleUrl>
<Point>
<coordinates>
-2.36272, 49.43775, 0
</coordinates>
</Point>
</Placemark><Placemark>
<name>Jersey</name>
<description>
<![CDATA[<a href="https://en.wikipedia.org/wiki/Jersey">Jersey</a>]]>
</description>
<styleUrl>#jersey</styleUrl>
<Point>
<coordinates>
-2.11, 49.185833, 0
</coordinates>
</Point>
</Placemark><Placemark>
<name>Isle of Man</name>
<description>
<![CDATA[<a href="https://en.wikipedia.org/wiki/Isle_of_Man">Isle of Man</a>]]>
</description>
<styleUrl>#isle_of_man</styleUrl>
<Point>
<coordinates>
-4.482, 54.145, 0
</coordinates>
</Point>
</Placemark>
</Document>
</kml>
