{"title": "List of Islands of Hahajima", "title_ja": "母島列島の島の一覧", "reference": "wikipedia: 母島列島", "url_reference": "https://ja.wikipedia.org/wiki/%E6%AF%8D%E5%B3%B6%E5%88%97%E5%B3%B6", "islands": [{"name_en": "haha_jima", "name_island": "母島", "url_island": "https://ja.wikipedia.org/wiki/%E6%AF%8D%E5%B3%B6", "name_municipality": "小笠原村", "url_municipality": "https://ja.wikipedia.org/wiki/%E5%B0%8F%E7%AC%A0%E5%8E%9F%E6%9D%91", "lat": 26.663889, "lon": 142.158333}, {"name_en": "ane_jima", "name_island": "姉島", "url_island": "https://ja.wikipedia.org/wiki/%E5%A7%89%E5%B3%B6", "name_municipality": "小笠原村", "url_municipality": "https://ja.wikipedia.org/wiki/%E5%B0%8F%E7%AC%A0%E5%8E%9F%E6%9D%91", "lat": 26.553889, "lon": 142.156944}, {"name_en": "imouto_jima", "name_island": "妹島", "url_island": "https://ja.wikipedia.org/wiki/%E5%A6%B9%E5%B3%B6", "name_municipality": "小笠原村", "url_municipality": "https://ja.wikipedia.org/wiki/%E5%B0%8F%E7%AC%A0%E5%8E%9F%E6%9D%91", "lat": 26.558333, "lon": 142.208333}, {"name_en": "mei_jima", "name_island": "姪島", "url_island": "https://ja.wikipedia.org/wiki/%E5%A7%AA%E5%B3%B6", "name_municipality": "小笠原村", "url_municipality": "https://ja.wikipedia.org/wiki/%E5%B0%8F%E7%AC%A0%E5%8E%9F%E6%9D%91", "lat": 26.569336, "lon": 142.231664}, {"name_en": "mukoujima_hahajima", "name_island": "向島_母島", "url_island": "https://ja.wikipedia.org/wiki/%E5%90%91%E5%B3%B6_(%E6%AF%8D%E5%B3%B6%E5%88%97%E5%B3%B6)", "name_municipality": "小笠原村", "url_municipality": "https://ja.wikipedia.org/wiki/%E5%B0%8F%E7%AC%A0%E5%8E%9F%E6%9D%91", "lat": 26.603333, "lon": 142.13}, {"name_en": "hirajima_tokyo", "name_island": "平島_東京", "url_island": "https://ja.wikipedia.org/wiki/%E5%B9%B3%E5%B3%B6_(%E6%9D%B1%E4%BA%AC%E9%83%BD)", "name_municipality": "小笠原村", "url_municipality": "https://ja.wikipedia.org/wiki/%E5%B0%8F%E7%AC%A0%E5%8E%9F%E6%9D%91", "lat": 26.585556, "lon": 142.154444}]}