{"title": "List of Islands of Ookuma", "title_ja": "大隅諸島の島の一覧", "reference": "wikipedia: 大隅諸島", "url_reference": "https://ja.wikipedia.org/wiki/Category:%E5%A4%A7%E9%9A%85%E8%AB%B8%E5%B3%B6", "islands": [{"name_en": "yakushima", "name_island": "屋久島", "url_island": "https://ja.wikipedia.org/wiki/%E5%B1%8B%E4%B9%85%E5%B3%B6", "name_municipality": "屋久島町", "url_municipality": "https://ja.wikipedia.org/wiki/%E5%B1%8B%E4%B9%85%E5%B3%B6%E7%94%BA", "lat": 30.39025, "lon": 130.6515}, {"name_en": "kuchinoerabujima", "name_island": "口永良部島", "url_island": "https://ja.wikipedia.org/wiki/%E5%8F%A3%E6%B0%B8%E8%89%AF%E9%83%A8%E5%B3%B6", "name_municipality": "屋久島町", "url_municipality": "https://ja.wikipedia.org/wiki/%E5%B1%8B%E4%B9%85%E5%B3%B6%E7%94%BA", "lat": 30.466667, "lon": 130.183333}, {"name_en": "tanegashima", "name_island": "種子島", "url_island": "https://ja.wikipedia.org/wiki/%E7%A8%AE%E5%AD%90%E5%B3%B6", "name_municipality": "西之表市", "url_municipality": "https://ja.wikipedia.org/wiki/%E8%A5%BF%E4%B9%8B%E8%A1%A8%E5%B8%82", "lat": 30.583333, "lon": 130.983333}, {"name_en": "mageshima", "name_island": "馬毛島", "url_island": "https://ja.wikipedia.org/wiki/%E9%A6%AC%E6%AF%9B%E5%B3%B6", "name_municipality": "西之表市", "url_municipality": "https://ja.wikipedia.org/wiki/%E8%A5%BF%E4%B9%8B%E8%A1%A8%E5%B8%82", "lat": 30.741639, "lon": 130.854694}, {"name_en": "takeshima_kagoshim", "name_island": "竹島_鹿児島", "url_island": "https://ja.wikipedia.org/wiki/%E7%AB%B9%E5%B3%B6_(%E9%B9%BF%E5%85%90%E5%B3%B6%E7%9C%8C)", "name_municipality": "三島村", "url_municipality": "https://ja.wikipedia.org/wiki/%E4%B8%89%E5%B3%B6%E6%9D%91", "lat": 30.813889, "lon": 130.41725}, {"name_en": "denshima", "name_island": "デン島", "url_island": "https://ja.wikipedia.org/wiki/%E3%83%87%E3%83%B3%E5%B3%B6", "name_municipality": "三島村", "url_municipality": "https://ja.wikipedia.org/wiki/%E4%B8%89%E5%B3%B6%E6%9D%91", "lat": 30.750556, "lon": 130.101944}, {"name_en": "showa_ioujima", "name_island": "昭和硫黄島", "url_island": "https://ja.wikipedia.org/wiki/%E6%98%AD%E5%92%8C%E7%A1%AB%E9%BB%84%E5%B3%B6", "name_municipality": "三島村", "url_municipality": "https://ja.wikipedia.org/wiki/%E4%B8%89%E5%B3%B6%E6%9D%91", "lat": 30.804167, "lon": 130.340278}]}