{"title": "List of Islands in Aomori", "title_ja": "青森県の島の一覧", "reference": "wikipedia: 青森県の島", "url_reference": "https://ja.wikipedia.org/wiki/Category:%E9%9D%92%E6%A3%AE%E7%9C%8C%E3%81%AE%E5%B3%B6", "islands": [{"name_en": "ooshima_mutsu", "name_island": "大島_陸奥湾", "url_island": "https://ja.wikipedia.org/wiki/%E5%A4%A7%E5%B3%B6_(%E9%99%B8%E5%A5%A5%E6%B9%BE)", "name_municipality": "平内町", "url_municipality": "https://ja.wikipedia.org/wiki/%E5%B9%B3%E5%86%85%E7%94%BA", "lat": 41.013167, "lon": 140.874194}, {"name_en": "obi_shima", "name_island": "帯島", "url_island": "https://ja.wikipedia.org/wiki/%E5%B8%AF%E5%B3%B6", "name_municipality": "外ヶ浜町", "url_municipality": "https://ja.wikipedia.org/wiki/%E5%A4%96%E3%83%B6%E6%B5%9C%E7%94%BA", "lat": 41.261944, "lon": 140.345}, {"name_en": "kabu_shima", "name_island": "蕪島", "url_island": "https://ja.wikipedia.org/wiki/%E8%95%AA%E5%B3%B6", "name_municipality": "鮫町", "url_municipality": "https://ja.wikipedia.org/wiki/%E9%AE%AB%E7%94%BA", "lat": 40.539072, "lon": 141.557486}, {"name_en": "benten_jima_ooma", "name_island": "弁天島_大間", "url_island": "https://ja.wikipedia.org/wiki/%E5%BC%81%E5%A4%A9%E5%B3%B6_(%E5%A4%A7%E9%96%93%E7%94%BA)", "name_municipality": "大間町", "url_municipality": "https://ja.wikipedia.org/wiki/%E5%A4%A7%E9%96%93%E7%94%BA", "lat": 41.55412890437658, "lon": 140.9115694546084}, {"name_en": "benten_jima_higashidoori", "name_island": "弁天島_東通", "url_island": "https://ja.wikipedia.org/wiki/%E5%BC%81%E5%A4%A9%E5%B3%B6_(%E6%9D%B1%E9%80%9A%E6%9D%91)", "name_municipality": "東通村", "url_municipality": "https://ja.wikipedia.org/wiki/%E6%9D%B1%E9%80%9A%E6%9D%91", "lat": 41.414583, "lon": 141.436556}, {"name_en": "yuno_shima", "name_island": "湯ノ島_青森", "url_island": "https://ja.wikipedia.org/wiki/%E6%B9%AF%E3%83%8E%E5%B3%B6_(%E9%9D%92%E6%A3%AE%E6%B9%BE)", "name_municipality": "青森市", "url_municipality": "https://ja.wikipedia.org/wiki/%E9%9D%92%E6%A3%AE%E5%B8%82", "lat": 40.895861, "lon": 140.849667}, {"name_en": "moura_jima", "name_island": "茂浦島", "url_island": "https://ja.wikipedia.org/wiki/%E5%A4%8F%E6%B3%8A%E5%8D%8A%E5%B3%B6", "name_municipality": "平内町", "url_municipality": "https://ja.wikipedia.org/wiki/%E5%B9%B3%E5%86%85%E7%94%BA", "lat": 40.933179858251336, "lon": 140.85498790665363}]}