{"title": "List of Islands of Oshika", "title_ja": "牡鹿諸島の島の一覧", "reference": "wikipedia: 牡鹿諸島", "url_reference": "https://ja.wikipedia.org/wiki/%E7%89%A1%E9%B9%BF%E8%AB%B8%E5%B3%B6", "islands": [{"name_en": "izushima_miyagi", "name_island": "出島_宮城", "url_island": "https://ja.wikipedia.org/wiki/%E5%87%BA%E5%B3%B6_(%E5%AE%AE%E5%9F%8E%E7%9C%8C)", "name_municipality": "女川町", "url_municipality": "https://ja.wikipedia.org/wiki/%E5%A5%B3%E5%B7%9D%E7%94%BA", "lat": 38.45, "lon": 141.525}, {"name_en": "enoshima_miyagi", "name_island": "江島_宮城", "url_island": "https://ja.wikipedia.org/wiki/%E6%B1%9F%E5%B3%B6_(%E5%AE%AE%E5%9F%8E%E7%9C%8C)", "name_municipality": "女川町", "url_municipality": "https://ja.wikipedia.org/wiki/%E5%A5%B3%E5%B7%9D%E7%94%BA", "lat": 38.398611, "lon": 141.593889}, {"name_en": "ashi_jima", "name_island": "足島", "url_island": "https://ja.wikipedia.org/wiki/%E8%B6%B3%E5%B3%B6", "name_municipality": "女川町", "url_municipality": "https://ja.wikipedia.org/wiki/%E5%A5%B3%E5%B7%9D%E7%94%BA", "lat": 38.388333, "lon": 141.603611}, {"name_en": "kinkasan_miyagi", "name_island": "金華山_宮城", "url_island": "https://ja.wikipedia.org/wiki/%E9%87%91%E8%8F%AF%E5%B1%B1_(%E5%AE%AE%E5%9F%8E%E7%9C%8C)", "name_municipality": "石巻市", "url_municipality": "https://ja.wikipedia.org/wiki/%E7%9F%B3%E5%B7%BB%E5%B8%82", "lat": 38.288889, "lon": 141.570056}, {"name_en": "ajishima", "name_island": "網地島", "url_island": "https://ja.wikipedia.org/wiki/%E7%B6%B2%E5%9C%B0%E5%B3%B6", "name_municipality": "石巻市", "url_municipality": "https://ja.wikipedia.org/wiki/%E7%9F%B3%E5%B7%BB%E5%B8%82", "lat": 38.266056, "lon": 141.478889}, {"name_en": "tashiro_jima", "name_island": "田代島", "url_island": "https://ja.wikipedia.org/wiki/%E7%94%B0%E4%BB%A3%E5%B3%B6", "name_municipality": "石巻市", "url_municipality": "https://ja.wikipedia.org/wiki/%E7%9F%B3%E5%B7%BB%E5%B8%82", "lat": 38.297917, "lon": 141.417028}]}